[
  { "name": "Shillong Sadar Police Station", "type": "police", "latitude": 25.5788, "longitude": 91.8933, "address": "Police Bazar, Shillong, East Khasi Hills, Meghalaya" },
  { "name": "Laitumkhrah Police Station", "type": "police", "latitude": 25.5744, "longitude": 91.8826, "address": "Laitumkhrah, Shillong, East Khasi Hills, Meghalaya" },
  { "name": "Lumdiengjri Police Station", "type": "police", "latitude": 25.5650, "longitude": 91.8750, "address": "Lumdiengjri, Shillong, East Khasi Hills, Meghalaya" },
  { "name": "Mawlai Police Station", "type": "police", "latitude": 25.5900, "longitude": 91.9100, "address": "Mawlai, Shillong, East Khasi Hills, Meghalaya" },
  { "name": "Nongthymmai Police Station", "type": "police", "latitude": 25.5820, "longitude": 91.8900, "address": "Nongthymmai, Shillong, East Khasi Hills, Meghalaya" },
  { "name": "Sohra Police Station", "type": "police", "latitude": 25.3000, "longitude": 91.7000, "address": "Sohra (Cherrapunji), East Khasi Hills, Meghalaya" },
  { "name": "Nongstoin Police Station", "type": "police", "latitude": 25.5167, "longitude": 91.2667, "address": "Nongstoin, West Khasi Hills, Meghalaya" },
  { "name": "Mairang Police Station", "type": "police", "latitude": 25.5667, "longitude": 91.6333, "address": "Mairang, West Khasi Hills, Meghalaya" },
  { "name": "Ranikor Police Station", "type": "police", "latitude": 25.4167, "longitude": 91.1833, "address": "Ranikor, South West Khasi Hills, Meghalaya" },
  { "name": "Nongpoh Police Station", "type": "police", "latitude": 25.8167, "longitude": 91.8833, "address": "Nongpoh, Ri-Bhoi, Meghalaya" },
  { "name": "Byrnihat Police Station", "type": "police", "latitude": 25.9833, "longitude": 91.9167, "address": "Byrnihat, Ri-Bhoi, Meghalaya" },
  { "name": "Umling Police Station", "type": "police", "latitude": 25.7500, "longitude": 91.9500, "address": "Umling, Ri-Bhoi, Meghalaya" },
  { "name": "Jowai Police Station", "type": "police", "latitude": 25.4522, "longitude": 92.2058, "address": "Jowai, West Jaintia Hills, Meghalaya" },
  { "name": "Amlarem Police Station", "type": "police", "latitude": 25.2833, "longitude": 92.2167, "address": "Amlarem, West Jaintia Hills, Meghalaya" },
  { "name": "Khliehriat Police Station", "type": "police", "latitude": 25.2167, "longitude": 92.0667, "address": "Khliehriat, East Jaintia Hills, Meghalaya" },
  { "name": "Saipung Police Station", "type": "police", "latitude": 25.1833, "longitude": 92.3333, "address": "Saipung, East Jaintia Hills, Meghalaya" },
  { "name": "Tura Police Station", "type": "police", "latitude": 25.5167, "longitude": 90.2167, "address": "Tura, West Garo Hills, Meghalaya" },
  { "name": "Betasing Police Station", "type": "police", "latitude": 25.4833, "longitude": 90.1167, "address": "Betasing, South West Garo Hills, Meghalaya" },
  { "name": "Ampati Police Station", "type": "police", "latitude": 25.1667, "longitude": 90.0167, "address": "Ampati, South West Garo Hills, Meghalaya" },
  { "name": "Williamnagar Police Station", "type": "police", "latitude": 25.4833, "longitude": 90.6167, "address": "Williamnagar, East Garo Hills, Meghalaya" },
  { "name": "Rongjeng Police Station", "type": "police", "latitude": 25.4167, "longitude": 90.5333, "address": "Rongjeng, East Garo Hills, Meghalaya" },
  { "name": "Samanda Police Station", "type": "police", "latitude": 25.3833, "longitude": 90.7167, "address": "Samanda, East Garo Hills, Meghalaya" },
  { "name": "Resubelpara Police Station", "type": "police", "latitude": 25.4833, "longitude": 90.3167, "address": "Resubelpara, North Garo Hills, Meghalaya" },
  { "name": "Bajengdoba Police Station", "type": "police", "latitude": 25.5500, "longitude": 90.4167, "address": "Bajengdoba, North Garo Hills, Meghalaya" },
  { "name": "Baghmara Police Station", "type": "police", "latitude": 25.1833, "longitude": 90.6333, "address": "Baghmara, South Garo Hills, Meghalaya" },
  { "name": "Chokpot Police Station", "type": "police", "latitude": 25.0833, "longitude": 90.5833, "address": "Chokpot, South Garo Hills, Meghalaya" },
  { "name": "Tikrikilla Police Station", "type": "police", "latitude": 25.2500, "longitude": 90.1833, "address": "Tikrikilla, West Garo Hills, Meghalaya" },
  { "name": "Mawkyrwat Police Station", "type": "police", "latitude": 25.3000, "longitude": 91.5000, "address": "Mawkyrwat, South West Khasi Hills, Meghalaya" },
  { "name": "Dawki Police Station", "type": "police", "latitude": 25.1167, "longitude": 91.7667, "address": "Dawki, West Jaintia Hills, Meghalaya" },
  { "name": "Umiam Police Station", "type": "police", "latitude": 25.6833, "longitude": 91.9167, "address": "Umiam, Ri-Bhoi, Meghalaya" },
  { "name": "Mawsynram Police Station", "type": "police", "latitude": 25.2833, "longitude": 91.5833, "address": "Mawsynram, East Khasi Hills, Meghalaya" },
  { "name": "Nongkrem Police Station", "type": "police", "latitude": 25.5333, "longitude": 91.8167, "address": "Nongkrem, East Khasi Hills, Meghalaya" },
  { "name": "Pynursla Police Station", "type": "police", "latitude": 25.6167, "longitude": 91.9833, "address": "Pynursla, East Khasi Hills, Meghalaya" },
  { "name": "Mylliem Police Station", "type": "police", "latitude": 25.5500, "longitude": 91.8500, "address": "Mylliem, East Khasi Hills, Meghalaya" },
  { "name": "Khanapara Police Station", "type": "police", "latitude": 25.8500, "longitude": 91.8000, "address": "Khanapara, Ri-Bhoi, Meghalaya" },
  { "name": "Nongstoin Sadar Police Station", "type": "police", "latitude": 25.5200, "longitude": 91.2700, "address": "Nongstoin, West Khasi Hills, Meghalaya" },
  { "name": "Mawshynrut Police Station", "type": "police", "latitude": 25.4500, "longitude": 91.3500, "address": "Mawshynrut, West Khasi Hills, Meghalaya" },
  { "name": "Nongpoh Sadar Police Station", "type": "police", "latitude": 25.8200, "longitude": 91.8850, "address": "Nongpoh, Ri-Bhoi, Meghalaya" },
  { "name": "Jowai Sadar Police Station", "type": "police", "latitude": 25.4550, "longitude": 92.2100, "address": "Jowai, West Jaintia Hills, Meghalaya" },
  { "name": "Thadlaskein Police Station", "type": "police", "latitude": 25.4833, "longitude": 92.2833, "address": "Thadlaskein, West Jaintia Hills, Meghalaya" },
  { "name": "Tura Sadar Police Station", "type": "police", "latitude": 25.5200, "longitude": 90.2200, "address": "Tura, West Garo Hills, Meghalaya" },
  { "name": "Dadenggre Police Station", "type": "police", "latitude": 25.4167, "longitude": 90.3000, "address": "Dadenggre, West Garo Hills, Meghalaya" },
  { "name": "Selsella Police Station", "type": "police", "latitude": 25.4833, "longitude": 90.0833, "address": "Selsella, West Garo Hills, Meghalaya" },
  { "name": "Phulbari Police Station", "type": "police", "latitude": 25.6167, "longitude": 89.9167, "address": "Phulbari, West Garo Hills, Meghalaya" },
  { "name": "Mendipathar Police Station", "type": "police", "latitude": 25.6000, "longitude": 90.5000, "address": "Mendipathar, North Garo Hills, Meghalaya" },
  { "name": "Kharkutta Police Station", "type": "police", "latitude": 25.5167, "longitude": 90.4833, "address": "Kharkutta, North Garo Hills, Meghalaya" },
  { "name": "Gasuapara Police Station", "type": "police", "latitude": 25.4000, "longitude": 90.4500, "address": "Gasuapara, South West Garo Hills, Meghalaya" },
  { "name": "Mahendraganj Police Station", "type": "police", "latitude": 25.2833, "longitude": 90.0000, "address": "Mahendraganj, South West Garo Hills, Meghalaya" },
  { "name": "Zikzak Police Station", "type": "police", "latitude": 25.1500, "longitude": 90.1000, "address": "Zikzak, South West Garo Hills, Meghalaya" },
  { "name": "Dalu Police Station", "type": "police", "latitude": 25.1167, "longitude": 90.2833, "address": "Dalu, West Garo Hills, Meghalaya" },
  { "name": "Gambegre Police Station", "type": "police", "latitude": 25.2167, "longitude": 90.4167, "address": "Gambegre, East Garo Hills, Meghalaya" },
  { "name": "Dambo Police Station", "type": "police", "latitude": 25.3000, "longitude": 90.5500, "address": "Dambo, East Garo Hills, Meghalaya" },
  { "name": "Songsak Police Station", "type": "police", "latitude": 25.4500, "longitude": 90.7000, "address": "Songsak, East Garo Hills, Meghalaya" },
  { "name": "Kherapara Police Station", "type": "police", "latitude": 25.1000, "longitude": 90.7000, "address": "Kherapara, South Garo Hills, Meghalaya" },
  { "name": "Garobadha Police Station", "type": "police", "latitude": 25.2000, "longitude": 90.7500, "address": "Garobadha, South Garo Hills, Meghalaya" },
  { "name": "Nokrek Police Station", "type": "police", "latitude": 25.4833, "longitude": 90.3500, "address": "Nokrek, North Garo Hills, Meghalaya" },

  { "name": "NEIGRIHMS", "type": "hospital", "latitude": 25.6107, "longitude": 91.9099, "address": "Mawdiangdiang, Shillong, East Khasi Hills, Meghalaya" },
  { "name": "Civil Hospital Shillong", "type": "hospital", "latitude": 25.5734, "longitude": 91.8839, "address": "Shillong, East Khasi Hills, Meghalaya" },
  { "name": "Bethany Hospital", "type": "hospital", "latitude": 25.5747, "longitude": 91.8910, "address": "Laitumkhrah, Shillong, East Khasi Hills, Meghalaya" },
  { "name": "Nazareth Hospital", "type": "hospital", "latitude": 25.5728, "longitude": 91.8792, "address": "Shillong, East Khasi Hills, Meghalaya" },
  { "name": "Ganesh Das Maternity and Child Health Hospital", "type": "hospital", "latitude": 25.5753, "longitude": 91.8824, "address": "Shillong, East Khasi Hills, Meghalaya" },
  { "name": "Pasteur Institute", "type": "hospital", "latitude": 25.5730, "longitude": 91.8910, "address": "Shillong, East Khasi Hills, Meghalaya" },
  { "name": "Tura Civil Hospital", "type": "hospital", "latitude": 25.5140, "longitude": 90.2145, "address": "Tura, West Garo Hills, Meghalaya" },
  { "name": "Tura Christian Hospital", "type": "hospital", "latitude": 25.5160, "longitude": 90.2150, "address": "Tura, West Garo Hills, Meghalaya" },
  { "name": "Jowai Civil Hospital", "type": "hospital", "latitude": 25.4525, "longitude": 92.2050, "address": "Jowai, West Jaintia Hills, Meghalaya" },
  { "name": "Williamnagar Civil Hospital", "type": "hospital", "latitude": 25.4850, "longitude": 90.6200, "address": "Williamnagar, East Garo Hills, Meghalaya" },
  { "name": "Nongpoh Civil Hospital", "type": "hospital", "latitude": 25.9040, "longitude": 91.8790, "address": "Nongpoh, Ri-Bhoi, Meghalaya" },
  { "name": "Khliehriat Civil Hospital", "type": "hospital", "latitude": 25.2167, "longitude": 92.0667, "address": "Khliehriat, East Jaintia Hills, Meghalaya" },
  { "name": "Sohra CHC", "type": "hospital", "latitude": 25.3000, "longitude": 91.7000, "address": "Sohra (Cherrapunji), East Khasi Hills, Meghalaya" },
  { "name": "Mawkyrwat CHC", "type": "hospital", "latitude": 25.3000, "longitude": 91.5000, "address": "Mawkyrwat, South West Khasi Hills, Meghalaya" },
  { "name": "Ampati CHC", "type": "hospital", "latitude": 25.1700, "longitude": 90.0100, "address": "Ampati, South West Garo Hills, Meghalaya" },
  { "name": "Resubelpara CHC", "type": "hospital", "latitude": 25.4900, "longitude": 90.3200, "address": "Resubelpara, North Garo Hills, Meghalaya" },
  { "name": "Woodland Hospital", "type": "hospital", "latitude": 25.5780, "longitude": 91.8850, "address": "Laitumkhrah, Shillong, East Khasi Hills, Meghalaya" },
  { "name": "Holy Cross Hospital", "type": "hospital", "latitude": 25.5720, "longitude": 91.8900, "address": "Laban, Shillong, East Khasi Hills, Meghalaya" },
  { "name": "Shillong Nursing Home", "type": "hospital", "latitude": 25.5750, "longitude": 91.8880, "address": "Police Bazar, Shillong, East Khasi Hills, Meghalaya" },
  { "name": "KJP Synod Hospital", "type": "hospital", "latitude": 25.5690, "longitude": 91.8820, "address": "Jaiaw, Shillong, East Khasi Hills, Meghalaya" },
  { "name": "Ri Bhoi Civil Hospital", "type": "hospital", "latitude": 25.8180, "longitude": 91.8800, "address": "Nongpoh, Ri-Bhoi, Meghalaya" },
  { "name": "West Khasi Hills Civil Hospital", "type": "hospital", "latitude": 25.5180, "longitude": 91.2680, "address": "Nongstoin, West Khasi Hills, Meghalaya" },
  { "name": "South West Khasi Hills Civil Hospital", "type": "hospital", "latitude": 25.3020, "longitude": 91.5020, "address": "Mawkyrwat, South West Khasi Hills, Meghalaya" },
  { "name": "West Jaintia Hills Civil Hospital", "type": "hospital", "latitude": 25.4540, "longitude": 92.2070, "address": "Jowai, West Jaintia Hills, Meghalaya" },
  { "name": "East Jaintia Hills Civil Hospital", "type": "hospital", "latitude": 25.2180, "longitude": 92.0680, "address": "Khliehriat, East Jaintia Hills, Meghalaya" },
  { "name": "West Garo Hills Civil Hospital", "type": "hospital", "latitude": 25.5160, "longitude": 90.2160, "address": "Tura, West Garo Hills, Meghalaya" },
  { "name": "East Garo Hills Civil Hospital", "type": "hospital", "latitude": 25.4870, "longitude": 90.6220, "address": "Williamnagar, East Garo Hills, Meghalaya" },
  { "name": "North Garo Hills Civil Hospital", "type": "hospital", "latitude": 25.4920, "longitude": 90.3220, "address": "Resubelpara, North Garo Hills, Meghalaya" },
  { "name": "South Garo Hills Civil Hospital", "type": "hospital", "latitude": 25.1850, "longitude": 90.6350, "address": "Baghmara, South Garo Hills, Meghalaya" },
  { "name": "South West Garo Hills Civil Hospital", "type": "hospital", "latitude": 25.1720, "longitude": 90.0120, "address": "Ampati, South West Garo Hills, Meghalaya" },
  { "name": "Mawsynram PHC", "type": "hospital", "latitude": 25.2850, "longitude": 91.5850, "address": "Mawsynram, East Khasi Hills, Meghalaya" },
  { "name": "Dawki PHC", "type": "hospital", "latitude": 25.1180, "longitude": 91.7680, "address": "Dawki, West Jaintia Hills, Meghalaya" },
  { "name": "Umiam PHC", "type": "hospital", "latitude": 25.6850, "longitude": 91.9180, "address": "Umiam, Ri-Bhoi, Meghalaya" },
  { "name": "Mairang PHC", "type": "hospital", "latitude": 25.5680, "longitude": 91.6350, "address": "Mairang, West Khasi Hills, Meghalaya" },
  { "name": "Ranikor PHC", "type": "hospital", "latitude": 25.4180, "longitude": 91.1850, "address": "Ranikor, South West Khasi Hills, Meghalaya" },
  { "name": "Amlarem PHC", "type": "hospital", "latitude": 25.2850, "longitude": 92.2180, "address": "Amlarem, West Jaintia Hills, Meghalaya" },
  { "name": "Saipung PHC", "type": "hospital", "latitude": 25.1850, "longitude": 92.3350, "address": "Saipung, East Jaintia Hills, Meghalaya" },
  { "name": "Betasing PHC", "type": "hospital", "latitude": 25.4850, "longitude": 90.1180, "address": "Betasing, South West Garo Hills, Meghalaya" },
  { "name": "Rongjeng PHC", "type": "hospital", "latitude": 25.4180, "longitude": 90.5350, "address": "Rongjeng, East Garo Hills, Meghalaya" },
  { "name": "Bajengdoba PHC", "type": "hospital", "latitude": 25.5520, "longitude": 90.4180, "address": "Bajengdoba, North Garo Hills, Meghalaya" },
  { "name": "Chokpot PHC", "type": "hospital", "latitude": 25.0850, "longitude": 90.5850, "address": "Chokpot, South Garo Hills, Meghalaya" },
  { "name": "Tikrikilla PHC", "type": "hospital", "latitude": 25.2520, "longitude": 90.1850, "address": "Tikrikilla, West Garo Hills, Meghalaya" },
  { "name": "Mendipathar CHC", "type": "hospital", "latitude": 25.6020, "longitude": 90.5020, "address": "Mendipathar, North Garo Hills, Meghalaya" },
  { "name": "Dadenggre CHC", "type": "hospital", "latitude": 25.4180, "longitude": 90.3020, "address": "Dadenggre, West Garo Hills, Meghalaya" },
  { "name": "Mahendraganj CHC", "type": "hospital", "latitude": 25.2850, "longitude": 90.0020, "address": "Mahendraganj, South West Garo Hills, Meghalaya" },
  { "name": "Thadlaskein CHC", "type": "hospital", "latitude": 25.4850, "longitude": 92.2850, "address": "Thadlaskein, West Jaintia Hills, Meghalaya" },
  { "name": "Mawshynrut CHC", "type": "hospital", "latitude": 25.4520, "longitude": 91.3520, "address": "Mawshynrut, West Khasi Hills, Meghalaya" },
  { "name": "Byrnihat PHC", "type": "hospital", "latitude": 25.9850, "longitude": 91.9180, "address": "Byrnihat, Ri-Bhoi, Meghalaya" },
  { "name": "Umling PHC", "type": "hospital", "latitude": 25.7520, "longitude": 91.9520, "address": "Umling, Ri-Bhoi, Meghalaya" },
  { "name": "Samanda PHC", "type": "hospital", "latitude": 25.3850, "longitude": 90.7180, "address": "Samanda, East Garo Hills, Meghalaya" },
  { "name": "Selsella PHC", "type": "hospital", "latitude": 25.4850, "longitude": 90.0850, "address": "Selsella, West Garo Hills, Meghalaya" },
  { "name": "Phulbari PHC", "type": "hospital", "latitude": 25.6180, "longitude": 89.9180, "address": "Phulbari, West Garo Hills, Meghalaya" },
  { "name": "Dalu PHC", "type": "hospital", "latitude": 25.1180, "longitude": 90.2850, "address": "Dalu, West Garo Hills, Meghalaya" },
  { "name": "Gambegre PHC", "type": "hospital", "latitude": 25.2180, "longitude": 90.4180, "address": "Gambegre, East Garo Hills, Meghalaya" },
  { "name": "Gasuapara PHC", "type": "hospital", "latitude": 25.4020, "longitude": 90.4520, "address": "Gasuapara, South West Garo Hills, Meghalaya" },
  { "name": "Zikzak PHC", "type": "hospital", "latitude": 25.1520, "longitude": 90.1020, "address": "Zikzak, South West Garo Hills, Meghalaya" },
  { "name": "Nongkrem PHC", "type": "hospital", "latitude": 25.5350, "longitude": 91.8180, "address": "Nongkrem, East Khasi Hills, Meghalaya" },
  { "name": "Pynursla PHC", "type": "hospital", "latitude": 25.6180, "longitude": 91.9850, "address": "Pynursla, East Khasi Hills, Meghalaya" },
  { "name": "Mylliem PHC", "type": "hospital", "latitude": 25.5520, "longitude": 91.8520, "address": "Mylliem, East Khasi Hills, Meghalaya" }
]
